censusid,popcount,mhi,id,dname,lat,lng,admtotal,generalfundexpends,perpupilexpends,avgteachersalary,readingproficiency
2708880,150,94500,2708880,Franconia Public School District,45.3194524,-92.7452584,26.74,259866,9718.25,0,0
2716830,350,62679,2716830,Prinsburg Public School District,44.9443336,-95.1990631,1.43,569466,398227.97,0,0
2715540,450,52260,2715540,Ivanhoe Public School District,44.4676054,-96.2310757,141.59,1418909,10021.25,31994,52.7366667
2721210,350,62750,2721210,Milroy Public School District,44.4344146,-95.5307389,81.48,1129854,13866.64,34232,46.2
2713680,350,48833,2713680,Hendricks Public School District,44.5088558,-96.3990986,141.41,2161147,15282.84,35033,73.2
2718390,550,74688,2718390,Lynd Public School District,44.4033052,-95.9276237,215.17,2552000,11860.39,38785,40.548
2718360,450,49318,2718360,Lyle Public School District,43.5366771,-92.9650599,290.4,3272497,11268.93,39388,42.0285714
2707590,1200,58935,2707590,Carlton Public School District,46.611118,-92.5231059,433.66,5305718,12234.74,39522,56.5757143
2711460,400,52500,2711460,Ellsworth Public School District,43.531348,-95.9835394,142.2,1931174,13580.69,39781,65.7
2709360,350,54688,2709360,Climax-Shelly Public Schools,47.5940442,-96.7922684,216.49,2151649,9938.79,40615,51.8114286
2700150,850,53529,2700150,Clinton-Graceville-Beardsley,45.5331969,-96.4835852,318.43,4013038,12602.58,41976,76.6585714
2713380,600,60865,2713380,Hancock Public School District,45.4815319,-95.7983009,359.77,3680472,10230.07,43060,67.2771429
2700162,1900,66680,2700162,Lake Park Audubon School District,46.8693853,-96.0612805,731.67,6608086,9031.51,43094,60.8028571
2712180,450,68750,2712180,Fisher Public School District,47.8304531,-96.7959339,270.17,2856133,10571.61,43329,42.4128571
2707320,400,53250,2707320,Butterfield Public School District,43.9378261,-94.8072871,205.52,2477941,12056.93,43950,30.1866667
2700148,1100,54347,2700148,Glenville-Emmons School District,43.5464193,-93.2988039,293.7,3556770,12110.21,44112,46.8757143
2707450,300,60469,2707450,Campbell-Tintah Public School District,46.0602873,-96.3761962,130.12,1912706,14699.55,44117,54.7375
2700294,1500,59226,2700294,RTR Public Schools,44.251535,-96.0693417,585.41,7006903,11969.22,44257,60.6914286
2732460,400,60000,2732460,Rothsay Public School District,46.4416465,-96.3541823,291.52,3062816,10506.37,44260,59.3785714
2700388,800,60556,2700388,Round Lake-Brewster Public Schools,43.6340199,-95.4732115,386.85,2552386,6597.87,44687,48.98
2740830,950,68854,2740830,Underwood Public School District,46.312269,-95.8754669,559.99,5222568,9326.18,45041,59.61
2717220,1400,72875,2717220,Kimball Public School District,45.3319061,-94.2827717,758.4,7352283,9694.47,45696,69.8628571
2718540,950,56146,2718540,Mabel-Canton Public School District,43.5763611,-91.8301799,256.28,2918326,11387.26,46123,60.2314286
2705660,1500,61172,2705660,Bird Island-Olivia-Lake Lillian Public School District,44.7806015,-94.9254407,663.87,7736854,11654.17,46275,58.1585714
2732700,400,46750,2732700,South Koochiching School District,48.2561998,-94.0709705,292.54,5317391,18176.63,46298,48.4671429
2700101,850,57679,2700101,Norman County East School District,47.3165421,-96.2256869,261.37,3444826,13179.88,46385,52.9871429
2713040,950,68214,2713040,Granada-Huntley-East Chain,43.6369519,-94.3165151,313.15,3726441,11899.86,46434,47.1428571
2715510,1500,45281,2715510,Isle Public School District,46.1541655,-93.4547996,417.09,4747300,11381.96,46457,53.89
2733210,1200,58524,2733210,Sleepy Eye Public School District,44.2683274,-94.7357253,578.7,6073846,10495.67,46479,58.3171429
2702640,900,62591,2702640,Lester Prairie Public School District,44.8804377,-94.0614136,464.87,4332496,9319.8,46734,55.7157143
2791445,1800,66947,2791445,Lake Crystal-Wellcome Memorial,44.0846976,-94.1950556,935.54,8825009,9433.06,46735,62.4985714
2707110,200,39667,2707110,Browns Valley Public School District,45.6513049,-96.7505553,159.99,1977668,12361.2,46919,39.31
2721270,1000,65972,2721270,Minneota Public School District,44.5695891,-96.0003253,479.65,5172424,10783.75,46982,73.0571429
2700385,850,57159,2700385,Red Lake County Central Public Schools,47.8991209,-95.8699638,388.89,4665530,11997.04,46992,57.5557143
2717120,1300,54309,2717120,Kerkhoven-Murdock-Sunburg,45.2458922,-95.3379434,732.42,6482598,8850.93,46995,53.4671429
2718330,1500,58042,2718330,Luverne Public School District,43.6779079,-96.1823567,1237.64,12521450,10117.2,47029,60.8528571
2700110,1000,54512,2700110,Cedar Mountain School District,44.4705864,-94.8958927,474.08,5382521,11353.61,47129,57.3057143
2717460,500,53750,2717460,Lake Benton Public School District,44.2915588,-96.3335852,197.21,2039518,10341.86,47170,78.1825
2708940,450,56667,2708940,Chokio-Alberta Public School District,45.5350514,-96.1276125,155.03,2233793,14408.78,47337,48.0225
2712210,700,43333,2712210,Floodwood Public School District,46.9180728,-92.9431903,207.78,2947231,14184.38,47401,48.578
2700013,2100,63040,2700013,Waterville-Elysian-Morristown Public School District,44.245235,-93.5755875,777.49,9062443,11656.03,47497,67.18
2791451,1800,73880,2791451,Janesville-Waldorf-Pemberton,44.028136,-93.7224228,678.53,7661013,11290.6,47556,53.7428571
2700132,1500,55145,2700132,Red Rock Central School District,44.144476,-95.230634,431.4,4532341,10506.12,47601,69.0242857
2714040,850,64896,2714040,Hills-Beaver Creek School District,43.5800159,-96.3621938,367.61,3871636,10531.91,47693,67.6771429
2742780,1100,51509,2742780,Windom Public School District,43.8793689,-95.1436626,1077.41,12649677,11740.82,47712,57.6328571
2741430,1300,57109,2741430,Wabasso Public School District,44.4211852,-95.3004837,403.37,4318872,10706.97,47734,55.7385714
2740920,800,47981,2740920,Verndale Public School District,46.4361609,-94.9638283,568.13,5119398,9010.96,47743,52.7028571
2700100,1700,58255,2700100,Fillmore Central,43.6030916,-92.1088086,615.88,7468828,12127.08,47839,60.0357143
2702730,950,59118,2702730,Adrian Public School District,43.69214,-95.9207079,570.78,5923858,10378.53,47893,57.6014286
2700103,1200,47566,2700103,Clearbrook-Gonvick School District,47.7535773,-95.4621883,460.15,4750279,10323.33,47905,56.32
2713140,650,70357,2713140,Grand Meadow Public School District,43.7006985,-92.572777,439.87,5035179,11446.97,47951,53.9157143
2712900,1400,78472,2712900,Goodhue Public School District,44.4187097,-92.5910235,682.9,6072059,8891.58,48000,56.1785714
2723550,850,61563,2723550,Marshall County Central Schools,48.3059436,-96.3363092,427.25,4957405,11603.05,48064,62.4014286
2700024,1300,62011,2700024,Warren-Alvarado-Oslo School District,48.1769101,-96.8124444,479.1,5858244,12227.6,48114,53.8714286
2713020,350,57500,2713020,Goodridge Public School District,48.1577112,-95.7872601,232.21,3278136,14117.12,48272,48.2142857
2700127,600,66774,2700127,Stephen-Argyle Central Schools,48.4181348,-96.8642414,293.09,4152162,14166.85,48302,62.0628571
2700182,2100,51385,2700182,Redwood Area School District,44.5631644,-95.1370458,1130.54,12237498,10824.47,48439,57.7514286
2703300,700,60144,2703300,Ashby Public School District,46.1181061,-95.8362743,285.87,2551563,8925.61,48519,58.9814286
2713890,300,48643,2713890,Herman-Norcross School District,45.8133866,-96.151806,97.45,1604621,16466.1,48590,60
2700091,1800,62614,2700091,MACCRAY School District,45.0003459,-95.3616922,730.42,8313846,11382.28,48617,52.9328571
2713930,600,60000,2713930,Heron Lake-Okabena School District,43.7674632,-95.349101,277.5,3900465,14055.73,48640,46.0928571
2717880,300,58646,2717880,Lancaster Public School District,48.919432,-96.6907618,163.1,2663238,16328.87,48662,71.958
2711220,850,57386,2711220,Edgerton Public School District,43.8820974,-96.1016365,408.35,4162723,10194.01,48724,52.6228571
2732520,1400,63724,2732520,Royalton Public School District,45.841294,-94.2385041,948.11,8440700,8902.66,48784,52.4042857
2723970,1300,59297,2723970,Ogilvie Public School District,45.8379796,-93.4461391,506.11,5297964,10468.01,49065,44.3028571
2725050,2100,44358,2725050,Onamia Public School District,46.0922673,-93.7583998,590.37,9390762,15906.57,49239,36.7657143
2707470,1000,54132,2707470,Canby Public School District,44.7154673,-96.2609803,567.36,5480820,9660.22,49350,66.8328571
2717940,750,55536,2717940,Laporte Public School District,47.2173235,-94.8752198,324.58,3773136,11624.67,49460,48.0328571
2700089,2000,58902,2700089,NRHEG School District,43.8850975,-93.4117599,878.31,8367463,9526.78,49535,58.0628571
2700023,1700,56983,2700023,Buffalo Lake-Hector-Stewart Public Schools,44.7532548,-94.6502099,505.7,6146990,12155.41,49671,64.3071429
2711190,1400,61319,2711190,Eden Valley-Watkins School District,45.3251307,-94.5217966,960.06,9056589,9433.36,49767,67.6214286
2732970,1400,51583,2732970,Sebeka Public School District,46.6154599,-95.0206271,500.1,5234401,10466.71,49787,61.1185714
2791448,600,49868,2791448,Norman County West School District,47.320977,-96.7645873,180.42,2898437,16064.94,49905,88.46
2730150,1000,89554,2730150,Randolph Public School District,44.5396097,-93.0106439,679.42,6804649,10015.38,49924,51.1328571
2719320,1100,73650,2719320,Medford Public School District,44.1736173,-93.2634396,885.73,7943135,8967.9,49957,52.7428571
2700379,2300,66409,2700379,Tri-City United School District,44.4063973,-93.615515,1859.45,18197086,9786.27,49987,57.2214286
2705430,1400,44181,2705430,Bertha-Hewitt Public School District,46.2454425,-95.0755683,491.95,5212284,10595.15,50045,59.5742857
2719170,1500,47569,2719170,McGregor Public School District,46.577144,-93.2387416,464.3,5596677,12054.01,50071,49.2585714
2713110,1200,52271,2713110,Cook County Public Schools,47.7246717,-90.4437558,463.8,5943384,12814.54,50172,58.53
2700090,1900,55152,2700090,Murray County Central School District,43.9869789,-95.8416774,736.95,7907944,10730.64,50236,65.6242857
2732550,1400,65905,2732550,Rush City Public School District,45.6742649,-92.9702159,848.18,7891842,9304.44,50285,67.0014286
2718060,750,55335,2718060,LeRoy-Ostrander Public Schools,43.5655039,-92.4712195,267.05,3581201,13410.23,50344,63.8471429
2718920,450,55125,2718920,Grygla Public School District,48.3598285,-95.4220433,150.23,2773895,18464.32,50347,52.5416667
2742750,1300,50625,2742750,Willow River Public School District,46.3282087,-92.901354,415.48,4674236,11250.21,50386,58.0871429
2706300,1600,53404,2706300,Browerville Public School District,46.0997576,-94.8787597,558.22,5562156,9964.09,50466,41.8114286
2712580,2100,56806,2712580,G.F.W.,44.5410367,-94.5217168,713.67,8777787,12299.5,50468,61.41
2742120,1800,47107,2742120,Waubun-Ogema-White Earth Public Schools,47.126713,-95.787229,660.56,7963601,12055.83,50530,40.8685714
2723580,750,74659,2723580,Nicollet Public School District,44.3081121,-94.2074868,388.01,4287203,11049.21,50567,56.3871429
2718570,800,53550,2718570,Madelia Public School District,44.0440065,-94.4142984,594.62,6380684,10730.69,50573,53.2528571
2714190,1200,71535,2714190,Holdingford Public School District,45.7126891,-94.4059426,1055.74,9635734,9127,50586,66.6742857
2718070,1700,64745,2718070,Le Sueur-Henderson School District,44.4791898,-93.9252557,1023.77,9878508,9649.15,50645,52.9657143
2709540,500,58214,2709540,Comfrey Public School District,44.100034,-94.9100641,146.94,1910965,13005.07,50694,59.6433333
2720580,1500,49673,2720580,Menahga Public School District,46.7762045,-95.1015948,1038.58,8821009,8493.34,50737,57.5242857
2700326,2000,55949,2700326,Tracy Area Public School District,44.2033246,-95.73433,708,7076085,9994.47,50919,65.6485714
2733900,2700,44948,2733900,Staples-Motley School District,46.377865,-94.7615283,1125.59,12249256,10882.52,50933,48.35
2740810,700,63109,2740810,Ulen-Hitterdal Public School District,47.0571296,-96.2474296,304.11,3508939,11538.39,50946,53.7914286
2730450,700,57708,2730450,Red Lake Falls Public School District,47.8693921,-96.2982327,369.44,4449884,12044.94,50961,59.0128571
2700022,1800,45704,2700022,Wadena-Deer Creek School District,46.434274,-95.1865091,1042.4,10328152,9908.05,50978,55.8785714
2741060,1300,59754,2741060,Wabasha-Kellogg Public School District,44.3128249,-92.0308892,524.51,5959455,11361.95,51041,65.0828571
2700328,950,51321,2700328,Ortonville Public Schools,45.2577515,-96.3329085,511.04,6046109,11830.99,51094,58.1571429
2744190,850,64279,2744190,Wrenshall Public School District,46.5190014,-92.3437281,364.46,3952098,10843.71,51121,54.7228571
2700104,2000,57644,2700104,West Central Area,45.8922198,-95.9716478,785.5,9139582,11635.37,51224,69.4728571
2723520,1300,56435,2723520,New York Mills Public School District,46.5498881,-95.3431901,739.75,6706695,9066.16,51507,60.0085714
2704050,1500,85096,2704050,Belle Plaine Public School District,44.6196812,-93.7819675,1599.93,14951404,9345.04,51508,63.2614286
2713860,1200,52578,2713860,Henning Public School District,46.31903,-95.4644919,374.48,4251043,11351.86,51598,64.7157143
2700382,1500,63897,2700382,Brandon-Evansville Public Schools,45.9963965,-95.6617685,480.76,4726135,9830.55,51657,62.2442857
2709690,750,56850,2709690,Cromwell-Wright Public Schools,46.6705876,-92.9108987,323.59,4906784,15163.58,51681,55.3514286
2728230,3200,58450,2728230,Perham-Dent Public School District,46.5746195,-95.6476793,1520.35,15271710,10044.86,51687,61.9742857
2707500,1800,72946,2707500,Cannon Falls Public School District,44.478968,-92.8530418,1153.09,11755018,10194.36,51704,62.4742857
2791446,750,45667,2791446,Tri-County School District,48.6133652,-96.5350604,190.77,2637397,13825.01,51785,66.37
2700108,1900,50663,2700108,Pipestone Area School District,43.9778346,-96.3110668,1150.65,12085558,10503.24,51796,55.4757143
2732070,1000,86518,2732070,Rockford Public School District,45.1037223,-93.6742182,1637.45,16417041,10025.98,51817,67.9671429
2700183,1200,54236,2700183,Westbrook-Walnut Grove Schools,44.1304554,-95.4523926,362.63,4998047,13782.77,51941,54.8528571
2723490,3900,62315,2723490,New Ulm Public School District,44.2913516,-94.4685705,2141.47,23115819,10794.37,52039,57.7357143
2717250,1500,63385,2717250,La Crescent-Hokah School District,43.8013367,-91.335884,1108.1,12031091,10857.41,52112,55.13
2700109,2000,49617,2700109,Long Prairie-Grey Eagle School District,45.9300277,-94.8429574,955.64,8893097,9305.91,52155,38.3971429
2728080,3400,53944,2728080,Park Rapids Public School District,47.0227262,-95.1357955,1670.67,16104587,9639.6,52168,51.7957143
2708910,650,43796,2708910,Chisholm Public School District,47.541039,-92.8621902,728.18,8113580,11142.27,52284,59.0128571
2711085,2000,42910,2711085,East Central School District,46.2146579,-92.5934769,739.97,7746194,10468.25,52288,51.1885714
2740680,900,52689,2740680,Truman Public School District,43.8412678,-94.4373776,211.57,2502616,11828.78,52419,57.6085714
2700088,1100,60331,2700088,Lakeview School District,44.608687,-95.6348351,635.32,6536438,10288.42,52430,64.71
2740665,2200,63616,2740665,Triton School District,44.0816379,-92.9166166,1099.54,9955048,9053.83,52437,50.0985714
2709330,900,80156,2709330,Cleveland Public School District,44.3053501,-93.8195353,509.65,4664608,9152.57,52481,66.7842857
2717100,2200,68889,2717100,Kenyon-Wanamingo School District,44.2935274,-92.916876,774.45,8775631,11331.44,52574,53.3314286
2705730,1500,48125,2705730,Blackduck Public School District,47.6928832,-94.5782797,655.95,7002715,10675.68,52621,48.21
2733870,2400,61064,2733870,St. Peter Public School District,44.339203,-94.0012314,2218.28,23104762,10415.62,52636,59.4428571
2714280,1000,62212,2714280,Houston Public School District,43.77677,-91.5745845,1923.5,19059114,9908.56,52665,57.9471429
2741880,1800,51087,2741880,Waseca Public School District,44.0788088,-93.5189102,1852.86,20317439,10965.45,52667,55.07
2733390,1100,54421,2733390,Springfield Public School District,44.2607998,-94.9772089,559.52,5576610,9966.78,52708,68.5971429
2700123,2200,65680,2700123,Howard Lake-Waverly-Winsted,45.0423581,-94.0396813,1255.38,12322797,9815.99,52743,60.3914286
2702910,2700,49932,2702910,Walker-Hackensack-Akeley School District,47.0446058,-94.5583883,769.62,9261043,12033.27,52748,53.9128571
2700007,1500,56705,2700007,Kingsland Public School District,43.6950381,-92.3179725,563.4,5282881,9376.79,52752,62.0528571
2730870,2400,44496,2730870,Northland Community Schools,47.0544103,-94.0510611,327.35,6038520,18446.68,52789,39.8033333
2742720,3900,53075,2742720,Willmar Public School District,45.0876733,-95.0239358,4253.25,41869252,9844.06,52793,46.68
2710140,1700,47563,2710140,Deer River Public School District,47.5138496,-93.8474107,921.64,12105608,13134.86,52811,53.5571429
2717910,750,58516,2717910,Lanesboro Public School District,43.7275442,-91.9448125,352.39,3613783,10255.07,52824,63.2571429
2733300,700,51125,2733300,Spring Grove School District,43.5756011,-91.631879,363.66,4207056,11568.65,52829,68.2514286
2700287,1900,72169,2700287,Plainview-Elgin-Millville,44.1847281,-92.1941707,1481.68,12679635,8557.61,52892,67.1542857
2717570,500,49521,2717570,Lake of the Woods School District,48.5881525,-94.8866975,459.65,5571088,12120.28,52965,47.2957143
2706150,1000,50814,2706150,Breckenridge Public School District,46.3623768,-96.5184185,634.76,7320207,11532.24,53013,55.0542857
2706060,1700,56893,2706060,Braham Public School District,45.7231163,-93.1987464,740.08,6760399,9134.69,53013,59.8514286
2725140,1300,54559,2725140,Osakis Public School District,45.885153,-95.1055025,840.41,7631697,9080.92,53044,62.0785714
2700126,950,56406,2700126,Ada-Borup Public School District,47.291103,-96.5239017,570.29,7613070,13349.47,53078,59.5242857
2728320,2300,58750,2728320,Pierz Public School District,45.9942788,-94.0548626,1174.65,10189027,8674.1,53080,61.0642857
2700102,2100,61742,2700102,Sibley East School District,44.5680938,-94.1212062,1148.65,10930383,9515.85,53131,50.6314286
2700006,2200,62217,2700006,Maple River School District,43.9061261,-93.9885016,899.91,9650272,10723.6,53160,66.9857143
2733480,900,76795,2733480,St. Clair Public School District,44.0826578,-93.8714048,661.98,6180560,9336.48,53243,60.0714286
2728290,1400,58448,2728290,Rushford-Peterson Public Schools,43.7863591,-91.7953783,693.09,7449969,10748.92,53249,62.1057143
2723370,900,56379,2723370,Nevis Public School District,46.9471619,-94.8808815,592.15,5852396,9883.3,53321,68.3614286
2733600,1200,52333,2733600,St. James Public School District,43.9836244,-94.6347259,1030.52,10567249,10254.29,53349,57.11
2710090,950,53375,2710090,Dawson-Boyd Public School District,44.8993198,-96.012372,565.34,6225734,11012.37,53429,64.4714286
2791447,600,64241,2791447,Kittson Central School District,48.7510461,-96.9832754,232.02,3526781,15200.33,53431,70.4471429
2703030,600,62353,2703030,Alden-Conger Public School District,43.6364923,-93.5615029,501.42,5525741,11020.18,53510,58.6057143
2709480,2000,52685,2709480,Greenway Public School District,47.3437825,-93.3505926,1050.51,12708016,12097,53537,61.7242857
2717520,2000,63472,2717520,Lake City Public School District,44.3928129,-92.3338849,1236.6,11664174,9432.46,53622,56.1157143
2700163,1600,58721,2700163,Renville County West School District,44.7907181,-95.2186117,568.38,6651406,11702.39,53629,54.88
2738280,800,66000,2738280,Swanville Public School District,45.9464225,-94.6396887,313.54,2999605,9566.9,53650,54.4328571
2700019,3200,58327,2700019,Minnewaska School District,45.628635,-95.4454853,1247.56,15730276,12608.83,53712,61.4614286
2700105,2000,54767,2700105,Belgrade-Brooten-Elrosa Public School District,45.4636,-95.0949723,633.68,6728090,10617.49,53713,63.7742857
2718940,2300,52000,2718940,Marshall Public School District,44.4366057,-95.7463159,2517.25,25908771,10292.49,53720,58.6671429
2714070,2200,45951,2714070,Hinckley-Finlayson School District,46.0433365,-92.8958254,962.1,10070689,10467.4,53827,40.7828571
2711520,750,48045,2711520,Ely Public School District,47.9073158,-91.9323094,567.79,7150004,12592.69,53835,63.22
2718210,2700,61330,2718210,Litchfield Public School District,45.1256428,-94.4978021,1555.53,16221008,10427.96,53885,65.1457143
2708220,1500,73407,2708220,Chatfield Public Schools,43.8430231,-92.2043769,867.48,8766530,10105.74,53977,70.5128571
2728110,1100,59044,2728110,Parkers Prairie Public School District,46.1399273,-95.3563313,544.22,6431599,11818.01,53998,64.7771429
2717010,450,43542,2717010,Kelliher Public School District,48.2086227,-94.6516094,276.55,4739154,17136.7,54089,44.6985714
2740860,850,64167,2740860,Upsala Public School District,45.8246278,-94.5295989,380.38,3809450,10014.85,54237,53.2442857
2711010,1400,78106,2711010,Dover-Eyota Public School District,43.9949007,-92.2154739,1118.62,10019353,8956.89,54262,63.3428571
2711910,1100,60863,2711910,Fertile-Beltrami School District,47.5660362,-96.3333442,477.62,5543145,11605.76,54262,71.7042857
2730510,600,35919,2730510,Red Lake Public School District,47.8701514,-95.181105,1473.35,30482917,20689.53,54398,24.03
2702720,1700,67688,2702720,Southland Public School District,43.6241708,-92.7431067,405.1,5708811,14092.35,54435,56.4542857
2723910,2000,79551,2723910,Central Public School District,44.7627448,-93.9034995,956.98,9205468,9619.29,54631,63.6985714
2744160,2600,51998,2744160,Worthington Public School District,43.6415789,-95.6597357,3901.98,32546249,8340.96,54647,44.4442857
2718660,1500,41895,2718660,Mahnomen Public School District,47.3456638,-95.839557,608.83,9146505,15023.09,54660,33.2942857
2703540,550,53636,2703540,Badger Public School District,48.7669679,-95.99403,221.11,3146215,14229.18,54724,69.2442857
2791449,1200,49750,2791449,Win-E-Mac School District,47.6679681,-95.9930738,475.29,5159404,10855.28,54754,66.1842857
2723010,650,52589,2723010,Mountain Lake Public Schools,43.9386145,-94.9535831,509.35,5562343,10920.47,54787,56.5842857
2718960,1900,55662,2718960,Martin County West School District,43.6844103,-94.713271,723.32,7859210,10865.47,54846,57.5257143
2718810,1200,72137,2718810,Maple Lake Public School District,45.2268294,-93.9950566,841.82,8700047,10334.81,54901,58.9857143
2728350,1500,65490,2728350,Pillager Public School District,46.3477855,-94.4646279,1166.01,10312923,8844.63,54983,59.75
2709720,1400,55460,2709720,Crookston Public School District,47.7977999,-96.5770606,1124.77,12715979,11305.4,55092,55.4271429
2700021,1400,56021,2700021,Eveleth-Gilbert School District,47.4675237,-92.4482227,889.15,11253169,12656.1,55147,60.7171429
2711880,3200,54284,2711880,Fergus Falls Public School District,46.2724241,-96.0903114,2925.35,25374444,8673.99,55153,64.8671429
2741850,1200,54950,2741850,Warroad Public School District,48.9739301,-95.0293359,992.99,12008594,12093.37,55268,66.9442857
2728970,2700,47398,2728970,Pine River-Backus Public School District,46.7413014,-94.4551872,904.8,8716103,9633.18,55275,55.38
2702760,3000,46644,2702760,Aitkin Public School District,46.5641443,-93.6489304,1177.69,12036522,10220.45,55454,57.6385714
2738850,2400,60163,2738850,Thief River Falls School District,48.0911239,-96.182704,1970.23,19967183,10134.44,55477,60.3057143
2718090,1500,69122,2718090,Lewiston-Altura Public School District,44.0024757,-91.8789758,728.06,7214946,9909.82,55517,63.0528571
2714010,450,41912,2714010,Hill City Public School District,46.9527982,-93.5237792,264.67,3787461,14310.13,55552,46.2828571
2700383,1700,57593,2700383,Morris Area Public Schools,45.6236312,-95.8931006,1041.88,10437152,10017.61,55627,60.9228571
2742330,650,46813,2742330,Wheaton Area Public School District,45.8038629,-96.4578202,365.13,4836906,13247.08,55648,64.5514286
2700099,2000,56944,2700099,Yellow Medicine East,44.7392517,-95.6553503,695.39,8244105,11855.37,55702,53.58
2712300,1400,48917,2712300,Fosston Public School District,47.5680727,-95.6958251,615.05,7021437,11416.04,55771,66.3328571
2721480,2600,52372,2721480,Mora Public School District,45.9520506,-93.2714573,1616.46,15524774,9604.18,55814,65.7842857
2728950,1200,75500,2728950,Pine Island Public School District,44.18555,-92.636086,1360.77,12474746,9167.42,55817,68.6657143
2733720,250,26563,2733720,Nett Lake Public School District,48.1299347,-93.1769195,95.98,1773774,18480.66,55843,56.6666667
2711130,1500,63804,2711130,East Grand Forks Public School District,47.9564692,-96.9232401,1911.42,17686216,9252.92,55881,54.5642857
2703060,5200,61097,2703060,Alexandria Public School District,45.9152584,-95.3865271,4201.34,45346085,10793.24,55914,65.6257143
2707350,1200,88056,2707350,Byron Public School District,44.0203987,-92.6182543,2129.25,18758087,8809.72,55919,76.0614286
2700005,2200,52576,2700005,United South Central School District,43.6790272,-93.7140255,702.56,8165950,11623.14,56002,60.7442857
2705760,1400,64831,2705760,Blooming Prairie Public School District,43.8506216,-93.0575229,760.07,7208294,9483.72,56088,63.7628571
2716980,1600,78854,2716980,Kasson-Mantorville School District,44.0248356,-92.7369572,2222.73,19343642,8702.65,56093,66.5071429
2700124,1800,50553,2700124,Fairmont Area School District,43.5982023,-94.5435189,1719.05,17712923,10303.9,56229,58.14
2713590,1800,64840,2713590,Hayfield Public School District,43.8447085,-92.8184578,708.95,6966813,9826.95,56280,48.9057143
2706240,750,46815,2706240,Brooklyn Center School District,45.067676,-93.3020893,2487.32,24748211,9949.75,56287,22.4285714
2738160,1700,71189,2738160,Stewartville Public School District,43.8471755,-92.5094271,2093.93,18817324,8986.61,56318,61.1271429
2710260,1300,66000,2710260,Dilworth-Glyndon-Felton,46.9549953,-96.550747,1605.92,15210547,9471.55,56353,62.0057143
2730090,2300,66959,2730090,Proctor Public School District,46.860097,-92.3344233,1789.77,19787213,11055.73,56413,59.7057143
2703570,2200,45381,2703570,Bagley Public School District,47.396434,-95.3651415,992.89,11000574,11079.35,56447,49.7742857
2712480,900,60048,2712480,Fulda Public School District,43.8579099,-95.629108,344.56,4745658,13773.1,56571,53.4657143
2741910,1800,86875,2741910,Watertown-Mayer Public School District,44.9437455,-93.8830768,1535.33,14911126,9712,56594,64.5914286
2709750,2900,51298,2709750,Crosby-Ironton Public School District,46.5777636,-93.9814824,1043.12,11427562,10955.17,56680,64.2871429
2733510,10000,50814,2733510,St. Cloud Public School District,45.5026164,-94.1647786,9940.85,103398210,10401.34,56694,43.7257143
2708070,1500,40507,2708070,Cass Lake-Bena Public Schools,47.3331398,-94.3905378,1158.74,21507053,18560.72,56748,35.2757143
2700128,3400,61796,2700128,Glencoe-Silver Lake School District,44.7771861,-94.1989307,1598.73,16117925,10081.71,56767,60.0785714
2712360,2300,60299,2712360,Frazee-Vergas Public School District,46.8118024,-95.5747638,912.34,9788592,10729.11,56773,61.6714286
2700125,2400,47912,2700125,Lac Qui Parle Valley School District,45.1318276,-96.073222,795.69,9193999,11554.75,56793,52.4842857
2700106,2400,58309,2700106,A.C.G.C. Public School District,45.0735832,-94.7472047,826.81,8795990,10638.47,56812,56.5114286
2700008,7200,54809,2700008,St. Louis County School District,47.7887979,-92.52573,1983.31,26947153,13586.96,56891,54.9757143
2728170,2300,63799,2728170,Pelican Rapids Public School District,46.5793316,-96.0610243,872.94,8614787,9868.7,56908,57.2542857
2703690,1500,63866,2703690,Barnum Public School District,46.5603249,-92.7112679,706.79,7844835,11099.24,56920,70.3485714
2728960,200,26313,2728960,Pine Point Public School District,46.9975863,-95.3953881,63.53,1431696,22535.75,56935,28.635
2709440,2200,70772,2709440,Rocori Public School District,45.4665725,-94.4613449,2113.89,21712045,10271.13,56975,64.53
2700130,2500,51337,2700130,Blue Earth Area Public Schools,43.6634707,-94.0614148,1047.27,11378637,10865.05,57395,54.3414286
2711760,3800,60652,2711760,Faribault Public School District,44.3094184,-93.2504574,3553,42164158,11867.2,57413,41.67
2710230,3400,59040,2710230,Detroit Lakes Public School District,46.923596,-95.7837481,2994.25,31624477,10561.74,57512,61.0257143
2721450,1500,55563,2721450,Moose Lake Public School District,46.4333463,-92.796174,633.22,6419007,10137.09,57525,54.1614286
2721420,4800,62464,2721420,Moorhead Public School District,46.8979991,-96.7204655,6857.35,72279388,10540.43,57577,52.7485714
2707410,3900,73288,2707410,Cambridge-Isanti Public School District,45.5423445,-93.260583,4962.52,49839951,10043.27,57624,62.1257143
2723400,2300,69094,2723400,New London-Spicer School District,45.2902759,-94.9950583,1536.7,15420092,10034.55,57985,69.03
2728380,2100,52857,2728380,Pine City Public School District,45.8537903,-92.9273121,1585.47,17968280,11333.09,58157,55.6385714
2704470,1500,50174,2704470,Benson Public School District,45.3055884,-95.6142136,786.01,9265765,11788.36,58265,51.4814286
2732250,2100,62308,2732250,Roseau Public School District,48.7834631,-95.7126967,1165.07,11945939,10253.41,58274,64.5685714
2712240,3000,71617,2712240,Foley Public School District,45.709067,-93.914815,1933.09,18546832,9594.4,58363,69.26
2733330,2700,70404,2733330,Spring Lake Park Public Schools,45.1448127,-93.2105141,5976.6,56496807,9453,58378,56.4728571
2700107,1100,53447,2700107,Greenbush-Middle River School District,48.6405555,-96.1599528,284.1,4458991,15695.15,58393,59.4642857
2791450,1400,53538,2791450,Mesabi East School District,47.4226819,-92.1921374,952.83,10784509,11318.4,58412,55.4257143
2703750,1600,57406,2703750,Battle Lake Public School District,46.3073222,-95.6908082,431.41,3704610,8587.21,58455,72.1828571
2710170,1300,95985,2710170,Delano Public School District,45.040383,-93.7693725,2480.59,25589951,10316.07,58521,79.0085714
2707380,1600,57775,2707380,Caledonia Public School District,43.6137125,-91.4305114,717.07,7693922,10729.67,58525,61.0757143
2720550,2700,64178,2720550,Melrose Public School District,45.6484138,-94.7833726,1334.42,13303761,9969.7,58695,54.6128571
2703150,2100,67378,2703150,Annandale Public School District,45.2695742,-94.1215621,1953.52,18442424,9440.61,58699,66.6757143
2703450,3200,48529,2703450,Austin Public School District,43.6693745,-93.0110587,5058.2,53287195,10534.81,58786,43.5071429
2720670,3200,58833,2720670,Milaca Public School District,45.8154999,-93.6915235,1756.12,18785271,10697.03,58809,58.3371429
2740740,2700,61599,2740740,Lake Superior Public School District,47.4744895,-91.4873255,1375.69,15344784,11154.25,58907,61.93
2714970,2300,61197,2714970,Hutchinson Public School District,44.898475,-94.401803,2826.42,29338751,10380.18,58937,66.3142857
2702970,3700,49318,2702970,Albert Lea Public School District,43.6770341,-93.313803,3491.22,38441564,11010.93,58998,46.8185714
2731780,8800,66557,2731780,Robbinsdale Public School District,45.0304737,-93.378405,12236.62,133467295,10907.2,59092,48.7471429
2723430,2700,99034,2723430,New Prague Area Schools,44.5562905,-93.5121778,4226.44,39848526,9428.39,59222,69.8828571
2718240,4000,51282,2718240,Little Falls Public School District,46.0420885,-94.4054992,2466.39,25026133,10146.87,59224,48.0142857
2745735,1600,71689,2745735,Zumbrota-Mazeppa School District,44.289631,-92.5862494,1204.73,12434013,10321,59326,66.0257143
2730480,2500,58343,2730480,Red Wing Public School District,44.5518406,-92.6089836,2724.27,28748425,10552.71,59419,54.8385714
2710060,2800,64265,2710060,Dassel-Cokato Public School District,45.0827058,-94.2583745,2213.05,20454365,9242.61,59426,72.5114286
2703660,1300,79125,2703660,Barnesville Public School District,46.652391,-96.4724032,879.17,8618085,9802.52,59458,77.0514286
2718780,7500,54846,2718780,Mankato Public School District,44.1836039,-93.9750867,8656.15,87845043,10148.28,59706,64.1842857
2707200,4300,81657,2707200,Buffalo-Hanover-Montrose Public Schools,45.1478809,-93.8166389,5801.21,59315590,10224.69,59740,65.1242857
2733000,3900,84905,2733000,Shakopee Public School District,44.7434421,-93.5100297,8247.22,75895117,9202.51,59842,62.3271429
2700001,800,49091,2700001,Mountain Iron-Buhl School District,47.5653272,-92.723232,518.55,6855707,13220.92,59868,63.2328571
2732880,3500,57732,2732880,Sauk Rapids-Rice Public Schools,45.6964078,-94.1242691,4517.87,44715087,9897.38,59904,57.2685714
2723880,5200,73918,2723880,Northfield Public School District,44.4658288,-93.2065442,4050.03,47720683,11782.8,59934,68.4371429
2744070,5600,51023,2744070,Winona Area Public School District,43.9892275,-91.6630395,2778.21,36137814,13007.59,59991,48.8085714
2728200,2300,56519,2728200,Pequot Lakes Public Schools,46.6262214,-94.2239081,1727.56,15564016,9009.25,60281,70.4228571
2723850,6500,69368,2723850,North St. Paul-Maplewood-Oakdale School District,44.9829666,-92.9808588,10635.99,113727860,10692.74,60296,50.79
2700231,1900,55702,2700231,Jackson County Central School District,43.6221225,-95.0818993,1186.54,11970790,10088.82,60319,54.3171429
2728050,3600,62342,2728050,Owatonna Public School District,44.0443277,-93.2162179,4943.21,52113289,10542.4,60358,53.9128571
2712270,3800,85410,2712270,Forest Lake Public School District,45.2738655,-92.994513,6058.87,62582630,10329.09,60401,60.82
2733450,1300,72120,2733450,St. Charles Public School District,43.9846019,-92.0396616,991.46,9596211,9678.87,60584,64.9857143
2713560,1100,77865,2713560,Hawley Public School District,46.8477456,-96.3122452,987.42,8766777,8878.47,60606,69.0814286
2723310,950,54010,2723310,Nashwauk-Keewatin School District,47.3907163,-93.1490907,587.22,7359072,12532.05,61054,50.7628571
2728140,1800,60821,2728140,Paynesville Public School District,45.4018454,-94.7324897,931.48,8868731,9521.12,61109,59.9428571
2713980,1600,47213,2713980,Hibbing Public School District,47.4071146,-92.9673899,2381.46,27959518,11740.49,61451,67.31
2730030,2900,70664,2730030,Princeton Public School District,45.575971,-93.6000896,3333.81,33130844,9937.83,61582,63.4157143
2732850,1600,60048,2732850,Sauk Centre Public School District,45.7351279,-95.0002673,1093.69,11047164,10100.82,61590,62.3357143
2713920,1100,70758,2713920,Hermantown Public School District,46.8928811,-92.2276096,2073.2,18925522,9128.65,61650,71.1714286
2715000,1000,47418,2715000,International Falls School District,48.414281,-93.2781962,998.31,11355361,11374.58,61750,62.78
2705460,1300,89782,2705460,Big Lake Public School District,45.3915322,-93.7064576,3026.16,30150488,9963.28,61786,63.1128571
2738880,500,82723,2738880,Esko Public School District,46.713831,-92.3607923,1255.45,10796321,8599.56,61790,80.6128571
2700017,3100,84455,2700017,Chisago Lakes School District,45.3905662,-92.8049451,3432.12,36444116,10618.54,61946,65.55
2721320,1300,51147,2721320,Montevideo Public School District,44.9856003,-95.7060085,1567.26,15043396,9598.53,62060,58.5785714
2702930,2600,73988,2702930,Albany Public School District,45.6081888,-94.5642478,1761.52,17089551,9701.59,62244,68.2842857
2723820,3200,79170,2723820,North Branch Public Schools,45.5052345,-92.9526805,2692.7,27562973,10236.18,62287,55.52
2741040,1600,46707,2741040,Virginia Public School District,47.6240008,-92.5231972,1736.49,19983684,11508.09,62337,67.4685714
2712420,1200,58097,2712420,Fridley Public School District,45.0846155,-93.2592376,2899.39,33593832,11586.52,62370,44.1814286
2741460,2900,97574,2741460,Waconia Public School District,44.8486071,-93.7998136,4050.66,41590079,10267.48,62452,70.6942857
2742270,4600,72556,2742270,West St. Paul-Mendota Heights-Eagan,44.873609,-93.1412907,5175.48,58530102,11309.12,62490,59.68
2733540,3900,87975,2733540,St. Francis Public School District,45.3804629,-93.3313746,4356.21,42954903,9860.61,62596,60.7257143
2703870,1300,89371,2703870,Becker Public School District,45.4446179,-93.8684422,2866.46,29895458,10429.4,62625,64.8314286
2706090,6400,55821,2706090,Brainerd Public School District,46.3229193,-94.1252103,6572.89,71227350,10836.53,62693,67.92
2732820,2100,82194,2732820,Sartell-St. Stephen School District,45.64628,-94.247681,4017.65,36147962,8997.29,62755,72.1571429
2733790,950,101386,2733790,St. Michael-Albertville School District,45.2218137,-93.679032,6421.12,55487672,8641.43,63036,76.1828571
2715750,1200,74230,2715750,Jordan Public School District,44.6509943,-93.5727788,1896.91,18040300,9510.36,63076,66.2442857
2733780,4500,76888,2733780,St. Louis Park Public School District,44.948693,-93.3637621,4616.9,58543881,12680.34,63193,58.9185714
2731800,12000,73618,2731800,Rochester Public School District,44.0546608,-92.4425886,17602.32,189372896,10758.41,63256,55.3985714
2718270,450,50000,2718270,Littlefork-Big Falls School District,48.2649955,-93.659864,322.84,4017182,12443.26,63259,60.8714286
2711040,11000,51913,2711040,Duluth Public School District,46.9446286,-92.0577521,8229.16,111622631,13564.28,63498,62.4971429
2704440,6900,51640,2704440,Bemidji Public School District,47.5133401,-94.9334162,5044.73,57707180,11439.1,63506,55.5557143
2721390,1900,73462,2721390,Monticello Public School District,45.3003336,-93.8474812,4140.32,50637193,12230.26,63521,66.9028571
2709420,1900,54141,2709420,Cloquet Public School District,46.7509917,-92.5333742,2761.49,27810520,10070.84,63524,67.3271429
2733420,1100,70143,2733420,St. Anthony-New Brighton Schools,45.0303318,-93.2154174,1816.12,18558636,10218.84,63687,67.5614286
2722950,7000,80215,2722950,Mounds View Public School District,45.0835001,-93.1554309,11656.29,133923939,11489.41,63793,67.5314286
2714220,4400,106103,2714220,Eden Prairie Public School District,44.8468508,-93.4573412,8916.38,98200311,11013.47,63903,73.5371429
2742160,5200,109562,2742160,Wayzata Public School District,45.010205,-93.4991063,11911.97,133911351,11241.75,64164,80.7957143
2713530,4800,76385,2713530,Hastings Public School District,44.6945396,-92.8625847,4346.71,47256101,10871.69,64896,65.1
2733810,7200,97320,2733810,South Washington County School District,44.8546881,-92.9284365,18545.67,201538843,10867.16,65045,67.9471429
2715030,2100,70076,2715030,Inver Grove Heights Schools,44.8256309,-93.0449554,3583.2,36658026,10230.53,65095,51.64
2733270,2100,61228,2733270,South St. Paul Public School District,44.8880271,-93.0404974,3419.29,34984783,10231.59,65558,45.0614286
2725200,9800,83984,2725200,Osseo Public School District,45.1079725,-93.4304112,21072.86,222122568,10540.69,65884,54.9457143
2730060,3300,108621,2730060,Prior Lake-Savage Area Schools,44.7026583,-93.4149192,8819.62,87163913,9882.96,65912,68.2771429
2722920,1500,100602,2722920,Westonka Public School District,44.9396488,-93.6651032,2440.68,27509910,11271.41,66063,77.6071429
2711820,3200,93611,2711820,Farmington Public School District,44.6298858,-93.1272429,7295.26,71285939,9771.54,66219,57.5828571
2713170,4800,53716,2713170,Grand Rapids Public School District,47.7153864,-94.3976678,3998.92,45181414,11298.4,66318,61.4971429
2708100,3100,96006,2708100,Centennial Public School District,45.15546,-93.106858,6575.93,71503817,10873.57,66703,68.8528571
2709510,2400,54132,2709510,Columbia Heights Public School District,45.0522498,-93.2538287,3457.95,34927109,10100.52,66754,35.0957143
2711370,3800,97326,2711370,Elk River Public School District,45.3272507,-93.5722122,13362.27,138474993,10363.13,67476,70.0242857
2731750,4100,61358,2731750,Richfield Public School District,44.877133,-93.2873664,4231.02,45318424,10710.99,68409,43.4857143
2714260,4800,71796,2714260,Hopkins Public School District,44.9378091,-93.4124817,6858.37,81156042,11833.14,68475,59.4985714
2705790,7000,72127,2705790,Bloomington Public School District,44.8296656,-93.315217,10466.54,127973644,12226.93,68922,53.5157143
2708190,5000,101661,2708190,Eastern Carver County Public Schools,44.8002412,-93.6379176,9673.13,107996917,11164.63,70239,67.0157143
2703180,20000,82438,2703180,Anoka-Hennepin Public School District,45.2173219,-93.3334627,38121.71,427741016,11220.4,70407,65.0485714
2721240,36500,59005,2721240,Minneapolis Public School District,44.9633242,-93.2683198,34088.09,439046660,12879.77,70659,46.48
2717780,4400,107695,2717780,Lakeville Public School District,44.6343539,-93.2908232,11098.37,125766054,11331.94,70874,73.31
2732430,4900,64846,2732430,Roseville Public School District,45.0121283,-93.1338462,7579.82,82594748,10896.66,70958,56.3642857
2718750,2000,106875,2718750,Mahtomedi Public School District,45.0855899,-92.9479147,3303.22,34246154,10367.51,71648,78.15
2707290,5600,74969,2707290,Burnsville Public School District,44.7875938,-93.3081439,8672.41,102758358,11848.88,71750,48.2771429
2742360,5400,84548,2742360,White Bear Lake School District,45.1013449,-93.0247794,8707.45,102105396,11726.21,72437,64.88
2711670,5300,117906,2711670,Minnetonka Public School District,44.9050192,-93.5476249,10926.92,115377537,10559.02,73195,81.4842857
2725080,1700,113341,2725080,Orono Public School District,44.9973086,-93.610104,2876.85,33235969,11552.9,73679,78.8314286
2732390,12500,94036,2732390,Rosemount-Apple Valley-Eagan,44.7517975,-93.1233268,28563.45,289752744,10144.18,74578,65.2914286
2738190,8000,96699,2738190,Stillwater Area Public School District,45.0376019,-92.8353427,8433.24,94177645,11167.43,74714,68.0985714
2733840,26000,55085,2733840,St. Paul Public School District,44.948901,-93.1040631,35937.23,439053778,12217.24,75199,39.59
2711250,4300,119294,2711250,Edina Public School District,44.8910772,-93.3578231,8412.2,98223666,11676.34,75489,77.4328571
